[{"address":"6800 E 41st St","approximate":false,"city":"Sioux Falls","country":"US","day":6,"location":"Community Reformed Church","name":"2nd Chance AA","notes":null,"postal_code":"57110","region":"Statestown AA (Demo Site)","slug":"2ndchanceaa-Saturday-10:00","state":"SD","time":"10:00","timezone":"America/Chicago","types":["EN","C","B","X"],"url":"https://template-demo.recoverysource.io//meetings/2ndchanceaa"},{"address":"6800 E 41st St","approximate":false,"city":"Sioux Falls","country":"US","day":2,"location":"Community Reformed Church","name":"2nd Chance AA","notes":null,"postal_code":"57110","region":"Statestown AA (Demo Site)","slug":"2ndchanceaa-Tuesday-19:00","state":"SD","time":"19:00","timezone":"America/Chicago","types":["EN","C","B","X"],"url":"https://template-demo.recoverysource.io//meetings/2ndchanceaa"},{"address":"304 N 10th","approximate":false,"city":"Beresford","country":"US","day":0,"location":null,"name":"Beresford AA","notes":"Behind Casey's\n</br >Last Monday of the month is an Open Birthday Meeting\n","postal_code":"57004","region":"Statestown AA (Demo Site)","slug":"beresfordaa-Sunday-19:00","state":"SD","time":"19:00","timezone":"America/Chicago","types":["EN","C","ST","D","X"],"url":"https://template-demo.recoverysource.io//meetings/beresfordaa"},{"address":"304 N 10th","approximate":false,"city":"Beresford","country":"US","day":3,"location":null,"name":"Beresford AA","notes":"Behind Casey's\n</br >Last Monday of the month is an Open Birthday Meeting\n","postal_code":"57004","region":"Statestown AA (Demo Site)","slug":"beresfordaa-Wednesday-20:00","state":"SD","time":"20:00","timezone":"America/Chicago","types":["EN","C","ST","D","X"],"url":"https://template-demo.recoverysource.io//meetings/beresfordaa"},{"address":"2707 West 33rd Street","approximate":false,"city":"Sioux Falls","country":"US","day":5,"location":"Good Shepherd Episcopal Church","name":"Black Sheep AA","notes":"Last Monday of the month is an Open Birthday Meeting","postal_code":"57105","region":"Statestown AA (Demo Site)","slug":"blacksheep-Friday-20:00","state":"SD","time":"20:00","timezone":"America/Chicago","types":["EN","C","ST","B"],"url":"https://template-demo.recoverysource.io//meetings/blacksheep"},{"address":"2707 West 33rd Street","approximate":false,"city":"Sioux Falls","country":"US","day":1,"location":"Good Shepherd Episcopal Church","name":"Black Sheep AA","notes":"Last Monday of the month is an Open Birthday Meeting","postal_code":"57105","region":"Statestown AA (Demo Site)","slug":"blacksheep-Monday-20:00","state":"SD","time":"20:00","timezone":"America/Chicago","types":["EN","C","ST","B"],"url":"https://template-demo.recoverysource.io//meetings/blacksheep"},{"address":"209 E Elm St","approximate":false,"city":"Brandon","country":"US","day":1,"location":null,"name":"Brandon 12x12","notes":null,"postal_code":"57005","region":"Statestown AA (Demo Site)","slug":"brandon12x12-Monday-19:00","state":"SD","time":"19:00","timezone":"America/Chicago","types":["EN","C","12x12","ST","B","D"],"url":"https://template-demo.recoverysource.io//meetings/brandon12x12"},{"address":"209 E Elm St","approximate":false,"city":"Brandon","country":"US","day":6,"location":null,"name":"Brandon 12x12","notes":null,"postal_code":"57005","region":"Statestown AA (Demo Site)","slug":"brandon12x12-Saturday-11:00","state":"SD","time":"11:00","timezone":"America/Chicago","types":["EN","C","12x12","ST","B","D"],"url":"https://template-demo.recoverysource.io//meetings/brandon12x12"},{"address":"209 E Elm St","approximate":false,"city":"Brandon","country":"US","day":4,"location":null,"name":"Brandon 12x12","notes":null,"postal_code":"57005","region":"Statestown AA (Demo Site)","slug":"brandon12x12-Thursday-20:00","state":"SD","time":"20:00","timezone":"America/Chicago","types":["EN","C","12x12","ST","B","D"],"url":"https://template-demo.recoverysource.io//meetings/brandon12x12"},{"address":"209 E Elm St","approximate":false,"city":"Brandon","country":"US","day":3,"location":null,"name":"Brandon 12x12","notes":null,"postal_code":"57005","region":"Statestown AA (Demo Site)","slug":"brandon12x12-Wednesday-20:00","state":"SD","time":"20:00","timezone":"America/Chicago","types":["EN","C","12x12","ST","B","D"],"url":"https://template-demo.recoverysource.io//meetings/brandon12x12"},{"address":"401 4th St","approximate":false,"city":"Chester","country":"US","day":5,"location":"Community Center","name":"Chester AA","notes":"First Friday of the month is an Open Birthday Meeting","postal_code":"57016","region":"Statestown AA (Demo Site)","slug":"chesteraa-Friday-20:00","state":"SD","time":"20:00","timezone":"America/Chicago","types":["EN","C","B","X"],"url":"https://template-demo.recoverysource.io//meetings/chesteraa"},{"address":"Hwy 34 and 453rd Ave","approximate":false,"city":"Madison","country":"US","day":1,"location":null,"name":"Madison AA","notes":"South side of highway, near vet clinic; 1 mi west of town\n<br \\>Saturday meeting are Open\n","postal_code":"57042","region":"Statestown AA (Demo Site)","slug":"madisonaa-Monday-20:00","state":"SD","time":"20:00","timezone":"America/Chicago","types":["EN","C","B","12x12","D","X"],"url":"https://template-demo.recoverysource.io//meetings/madisonaa"},{"address":"Hwy 34 and 453rd Ave","approximate":false,"city":"Madison","country":"US","day":6,"location":null,"name":"Madison AA","notes":"South side of highway, near vet clinic; 1 mi west of town\n<br \\>Saturday meeting are Open\n","postal_code":"57042","region":"Statestown AA (Demo Site)","slug":"madisonaa-Saturday-10:00","state":"SD","time":"10:00","timezone":"America/Chicago","types":["EN","C","B","12x12","D","X"],"url":"https://template-demo.recoverysource.io//meetings/madisonaa"},{"address":"Hwy 34 and 453rd Ave","approximate":false,"city":"Madison","country":"US","day":6,"location":null,"name":"Madison AA","notes":"South side of highway, near vet clinic; 1 mi west of town\n<br \\>Saturday meeting are Open\n","postal_code":"57042","region":"Statestown AA (Demo Site)","slug":"madisonaa-Saturday-20:00","state":"SD","time":"20:00","timezone":"America/Chicago","types":["EN","C","B","12x12","D","X"],"url":"https://template-demo.recoverysource.io//meetings/madisonaa"},{"address":"Hwy 34 and 453rd Ave","approximate":false,"city":"Madison","country":"US","day":0,"location":null,"name":"Madison AA","notes":"South side of highway, near vet clinic; 1 mi west of town\n<br \\>Saturday meeting are Open\n","postal_code":"57042","region":"Statestown AA (Demo Site)","slug":"madisonaa-Sunday-09:00","state":"SD","time":"09:00","timezone":"America/Chicago","types":["EN","C","B","12x12","D","X"],"url":"https://template-demo.recoverysource.io//meetings/madisonaa"},{"address":"Hwy 34 and 453rd Ave","approximate":false,"city":"Madison","country":"US","day":0,"location":null,"name":"Madison AA","notes":"South side of highway, near vet clinic; 1 mi west of town\n<br \\>Saturday meeting are Open\n","postal_code":"57042","region":"Statestown AA (Demo Site)","slug":"madisonaa-Sunday-19:30","state":"SD","time":"19:30","timezone":"America/Chicago","types":["EN","C","B","12x12","D","X"],"url":"https://template-demo.recoverysource.io//meetings/madisonaa"},{"address":"Hwy 34 and 453rd Ave","approximate":false,"city":"Madison","country":"US","day":4,"location":null,"name":"Madison AA","notes":"South side of highway, near vet clinic; 1 mi west of town\n<br \\>Saturday meeting are Open\n","postal_code":"57042","region":"Statestown AA (Demo Site)","slug":"madisonaa-Thursday-20:00","state":"SD","time":"20:00","timezone":"America/Chicago","types":["EN","C","B","12x12","D","X"],"url":"https://template-demo.recoverysource.io//meetings/madisonaa"},{"address":"Hwy 34 and 453rd Ave","approximate":false,"city":"Madison","country":"US","day":2,"location":null,"name":"Madison AA","notes":"South side of highway, near vet clinic; 1 mi west of town\n<br \\>Saturday meeting are Open\n","postal_code":"57042","region":"Statestown AA (Demo Site)","slug":"madisonaa-Tuesday-20:00","state":"SD","time":"20:00","timezone":"America/Chicago","types":["EN","C","B","12x12","D","X"],"url":"https://template-demo.recoverysource.io//meetings/madisonaa"},{"address":"Hwy 34 and 453rd Ave","approximate":false,"city":"Madison","country":"US","day":3,"location":null,"name":"Madison AA","notes":"South side of highway, near vet clinic; 1 mi west of town\n<br \\>Saturday meeting are Open\n","postal_code":"57042","region":"Statestown AA (Demo Site)","slug":"madisonaa-Wednesday-17:30","state":"SD","time":"17:30","timezone":"America/Chicago","types":["EN","C","B","12x12","D","X"],"url":"https://template-demo.recoverysource.io//meetings/madisonaa"},{"address":"3rd Street Northwest","approximate":false,"city":"Madison","country":"US","day":5,"location":"Grace Episcopal Church","name":"Madison AA","notes":"Behind Casey's","postal_code":"57042","region":"Statestown AA (Demo Site)","slug":"madisonaagrace-Friday-12:00","state":"SD","time":"12:00","timezone":"America/Chicago","types":["EN","C","B"],"url":"https://template-demo.recoverysource.io//meetings/madisonaagrace"},{"address":"3rd Street Northwest","approximate":false,"city":"Madison","country":"US","day":5,"location":"Grace Episcopal Church","name":"Madison AA","notes":"Behind Casey's","postal_code":"57042","region":"Statestown AA (Demo Site)","slug":"madisonaagrace-Friday-17:30","state":"SD","time":"17:30","timezone":"America/Chicago","types":["EN","C","B"],"url":"https://template-demo.recoverysource.io//meetings/madisonaagrace"},{"address":"3rd Street Northwest","approximate":false,"city":"Madison","country":"US","day":6,"location":"Grace Episcopal Church","name":"Madison AA","notes":"Behind Casey's","postal_code":"57042","region":"Statestown AA (Demo Site)","slug":"madisonaagrace-Saturday-09:00","state":"SD","time":"09:00","timezone":"America/Chicago","types":["EN","C","B"],"url":"https://template-demo.recoverysource.io//meetings/madisonaagrace"},{"address":"3rd Street Northwest","approximate":false,"city":"Madison","country":"US","day":0,"location":"Grace Episcopal Church","name":"Madison AA","notes":"Behind Casey's","postal_code":"57042","region":"Statestown AA (Demo Site)","slug":"madisonaagrace-Sunday-17:30","state":"SD","time":"17:30","timezone":"America/Chicago","types":["EN","C","B"],"url":"https://template-demo.recoverysource.io//meetings/madisonaagrace"},{"address":"3rd Street Northwest","approximate":false,"city":"Madison","country":"US","day":4,"location":"Grace Episcopal Church","name":"Madison AA","notes":"Behind Casey's","postal_code":"57042","region":"Statestown AA (Demo Site)","slug":"madisonaagrace-Thursday-12:00","state":"SD","time":"12:00","timezone":"America/Chicago","types":["EN","C","B"],"url":"https://template-demo.recoverysource.io//meetings/madisonaagrace"},{"address":"3rd Street Northwest","approximate":false,"city":"Madison","country":"US","day":2,"location":"Grace Episcopal Church","name":"Madison AA","notes":"Behind Casey's","postal_code":"57042","region":"Statestown AA (Demo Site)","slug":"madisonaagrace-Tuesday-12:00","state":"SD","time":"12:00","timezone":"America/Chicago","types":["EN","C","B"],"url":"https://template-demo.recoverysource.io//meetings/madisonaagrace"},{"address":"3rd Street Northwest","approximate":false,"city":"Madison","country":"US","day":2,"location":"Grace Episcopal Church","name":"Madison AA","notes":"Behind Casey's","postal_code":"57042","region":"Statestown AA (Demo Site)","slug":"madisonaagrace-Tuesday-17:30","state":"SD","time":"17:30","timezone":"America/Chicago","types":["EN","C","B"],"url":"https://template-demo.recoverysource.io//meetings/madisonaagrace"},{"address":"3rd Street Northwest","approximate":false,"city":"Madison","country":"US","day":3,"location":"Grace Episcopal Church","name":"Madison AA","notes":"Behind Casey's","postal_code":"57042","region":"Statestown AA (Demo Site)","slug":"madisonaagrace-Wednesday-12:00","state":"SD","time":"12:00","timezone":"America/Chicago","types":["EN","C","B"],"url":"https://template-demo.recoverysource.io//meetings/madisonaagrace"},{"address":"3rd Street Northwest","approximate":false,"city":"Madison","country":"US","day":3,"location":"Grace Episcopal Church","name":"Madison AA","notes":"Behind Casey's","postal_code":"57042","region":"Statestown AA (Demo Site)","slug":"madisonaagrace-Wednesday-17:30","state":"SD","time":"17:30","timezone":"America/Chicago","types":["EN","C","B"],"url":"https://template-demo.recoverysource.io//meetings/madisonaagrace"},{"address":"1509 West 1st Street","approximate":false,"city":"Sioux Falls","country":"US","day":5,"location":"Westside Alano Club","name":"Westside AA","notes":null,"postal_code":"57104","region":"Statestown AA (Demo Site)","slug":"westside-Friday-10:00","state":"SD","time":"10:00","timezone":"America/Chicago","types":["EN","C","B","TR","X"],"url":"https://template-demo.recoverysource.io//meetings/westside"},{"address":"1509 West 1st Street","approximate":false,"city":"Sioux Falls","country":"US","day":5,"location":"Westside Alano Club","name":"Westside AA","notes":null,"postal_code":"57104","region":"Statestown AA (Demo Site)","slug":"westside-Friday-20:00","state":"SD","time":"20:00","timezone":"America/Chicago","types":["EN","C","B","TR","X"],"url":"https://template-demo.recoverysource.io//meetings/westside"},{"address":"1509 West 1st Street","approximate":false,"city":"Sioux Falls","country":"US","day":1,"location":"Westside Alano Club","name":"Westside AA","notes":null,"postal_code":"57104","region":"Statestown AA (Demo Site)","slug":"westside-Monday-10:00","state":"SD","time":"10:00","timezone":"America/Chicago","types":["EN","C","B","TR","X"],"url":"https://template-demo.recoverysource.io//meetings/westside"},{"address":"1509 West 1st Street","approximate":false,"city":"Sioux Falls","country":"US","day":1,"location":"Westside Alano Club","name":"Westside AA","notes":null,"postal_code":"57104","region":"Statestown AA (Demo Site)","slug":"westside-Monday-20:00","state":"SD","time":"20:00","timezone":"America/Chicago","types":["EN","C","B","TR","X"],"url":"https://template-demo.recoverysource.io//meetings/westside"},{"address":"1509 West 1st Street","approximate":false,"city":"Sioux Falls","country":"US","day":6,"location":"Westside Alano Club","name":"Westside AA","notes":null,"postal_code":"57104","region":"Statestown AA (Demo Site)","slug":"westside-Saturday-08:00","state":"SD","time":"08:00","timezone":"America/Chicago","types":["EN","C","B","TR","X"],"url":"https://template-demo.recoverysource.io//meetings/westside"},{"address":"1509 West 1st Street","approximate":false,"city":"Sioux Falls","country":"US","day":6,"location":"Westside Alano Club","name":"Westside AA","notes":null,"postal_code":"57104","region":"Statestown AA (Demo Site)","slug":"westside-Saturday-10:00","state":"SD","time":"10:00","timezone":"America/Chicago","types":["EN","C","B","TR","X"],"url":"https://template-demo.recoverysource.io//meetings/westside"},{"address":"1509 West 1st Street","approximate":false,"city":"Sioux Falls","country":"US","day":6,"location":"Westside Alano Club","name":"Westside AA","notes":null,"postal_code":"57104","region":"Statestown AA (Demo Site)","slug":"westside-Saturday-20:00","state":"SD","time":"20:00","timezone":"America/Chicago","types":["EN","C","B","TR","X"],"url":"https://template-demo.recoverysource.io//meetings/westside"},{"address":"1509 West 1st Street","approximate":false,"city":"Sioux Falls","country":"US","day":0,"location":"Westside Alano Club","name":"Westside AA","notes":null,"postal_code":"57104","region":"Statestown AA (Demo Site)","slug":"westside-Sunday-08:00","state":"SD","time":"08:00","timezone":"America/Chicago","types":["EN","C","B","TR","X"],"url":"https://template-demo.recoverysource.io//meetings/westside"},{"address":"1509 West 1st Street","approximate":false,"city":"Sioux Falls","country":"US","day":0,"location":"Westside Alano Club","name":"Westside AA","notes":null,"postal_code":"57104","region":"Statestown AA (Demo Site)","slug":"westside-Sunday-11:00","state":"SD","time":"11:00","timezone":"America/Chicago","types":["EN","C","B","TR","X"],"url":"https://template-demo.recoverysource.io//meetings/westside"},{"address":"1509 West 1st Street","approximate":false,"city":"Sioux Falls","country":"US","day":0,"location":"Westside Alano Club","name":"Westside AA","notes":null,"postal_code":"57104","region":"Statestown AA (Demo Site)","slug":"westside-Sunday-19:30","state":"SD","time":"19:30","timezone":"America/Chicago","types":["EN","C","B","TR","X"],"url":"https://template-demo.recoverysource.io//meetings/westside"},{"address":"1509 West 1st Street","approximate":false,"city":"Sioux Falls","country":"US","day":4,"location":"Westside Alano Club","name":"Westside AA","notes":null,"postal_code":"57104","region":"Statestown AA (Demo Site)","slug":"westside-Thursday-08:00","state":"SD","time":"08:00","timezone":"America/Chicago","types":["EN","C","B","TR","X"],"url":"https://template-demo.recoverysource.io//meetings/westside"},{"address":"1509 West 1st Street","approximate":false,"city":"Sioux Falls","country":"US","day":4,"location":"Westside Alano Club","name":"Westside AA","notes":null,"postal_code":"57104","region":"Statestown AA (Demo Site)","slug":"westside-Thursday-10:00","state":"SD","time":"10:00","timezone":"America/Chicago","types":["EN","C","B","TR","X"],"url":"https://template-demo.recoverysource.io//meetings/westside"},{"address":"1509 West 1st Street","approximate":false,"city":"Sioux Falls","country":"US","day":4,"location":"Westside Alano Club","name":"Westside AA","notes":null,"postal_code":"57104","region":"Statestown AA (Demo Site)","slug":"westside-Thursday-17:00","state":"SD","time":"17:00","timezone":"America/Chicago","types":["EN","C","B","TR","X"],"url":"https://template-demo.recoverysource.io//meetings/westside"},{"address":"1509 West 1st Street","approximate":false,"city":"Sioux Falls","country":"US","day":4,"location":"Westside Alano Club","name":"Westside AA","notes":null,"postal_code":"57104","region":"Statestown AA (Demo Site)","slug":"westside-Thursday-20:00","state":"SD","time":"20:00","timezone":"America/Chicago","types":["EN","C","B","TR","X"],"url":"https://template-demo.recoverysource.io//meetings/westside"},{"address":"1509 West 1st Street","approximate":false,"city":"Sioux Falls","country":"US","day":2,"location":"Westside Alano Club","name":"Westside AA","notes":null,"postal_code":"57104","region":"Statestown AA (Demo Site)","slug":"westside-Tuesday-08:00","state":"SD","time":"08:00","timezone":"America/Chicago","types":["EN","C","B","TR","X"],"url":"https://template-demo.recoverysource.io//meetings/westside"},{"address":"1509 West 1st Street","approximate":false,"city":"Sioux Falls","country":"US","day":2,"location":"Westside Alano Club","name":"Westside AA","notes":null,"postal_code":"57104","region":"Statestown AA (Demo Site)","slug":"westside-Tuesday-10:00","state":"SD","time":"10:00","timezone":"America/Chicago","types":["EN","C","B","TR","X"],"url":"https://template-demo.recoverysource.io//meetings/westside"},{"address":"1509 West 1st Street","approximate":false,"city":"Sioux Falls","country":"US","day":2,"location":"Westside Alano Club","name":"Westside AA","notes":null,"postal_code":"57104","region":"Statestown AA (Demo Site)","slug":"westside-Tuesday-20:00","state":"SD","time":"20:00","timezone":"America/Chicago","types":["EN","C","B","TR","X"],"url":"https://template-demo.recoverysource.io//meetings/westside"},{"address":"1509 West 1st Street","approximate":false,"city":"Sioux Falls","country":"US","day":3,"location":"Westside Alano Club","name":"Westside AA","notes":null,"postal_code":"57104","region":"Statestown AA (Demo Site)","slug":"westside-Wednesday-10:00","state":"SD","time":"10:00","timezone":"America/Chicago","types":["EN","C","B","TR","X"],"url":"https://template-demo.recoverysource.io//meetings/westside"},{"address":"1509 West 1st Street","approximate":false,"city":"Sioux Falls","country":"US","day":3,"location":"Westside Alano Club","name":"Westside AA","notes":null,"postal_code":"57104","region":"Statestown AA (Demo Site)","slug":"westside-Wednesday-18:30","state":"SD","time":"18:30","timezone":"America/Chicago","types":["EN","C","B","TR","X"],"url":"https://template-demo.recoverysource.io//meetings/westside"},{"address":"1509 West 1st Street","approximate":false,"city":"Sioux Falls","country":"US","day":3,"location":"Westside Alano Club","name":"Westside AA","notes":null,"postal_code":"57104","region":"Statestown AA (Demo Site)","slug":"westside-Wednesday-20:00","state":"SD","time":"20:00","timezone":"America/Chicago","types":["EN","C","B","TR","X"],"url":"https://template-demo.recoverysource.io//meetings/westside"}]