[
    {
        "name": "Very Local AA Group",
        "slug": "verylocal-Tuesday-19:00",
        "day": 2,
        "time": "19:00",
        "timezone": "America/Chicago",
        "location": "Local School",
        "notes": "",
        "region": "Statestown AA (Demo Site)",
        "url": "https://aamod-demo.area63aa.org/meetings/verylocal",
        "types": [
            "EN",
            "C",
            "B",
            "X"
        ],
        "approximate": false,
        "address": "123 N Main Ave",
        "city": "Sioux Falls",
        "state": "SD",
        "postal_code": "42042",
        "country": "US"
    },
    {
        "name": "Very Local AA Group",
        "slug": "verylocal-Saturday-10:00",
        "day": 6,
        "time": "10:00",
        "timezone": "America/Chicago",
        "location": "Local School",
        "notes": "",
        "region": "Statestown AA (Demo Site)",
        "url": "https://aamod-demo.area63aa.org/meetings/verylocal",
        "types": [
            "EN",
            "C",
            "B",
            "X"
        ],
        "approximate": false,
        "address": "123 N Main Ave",
        "city": "Sioux Falls",
        "state": "SD",
        "postal_code": "42042",
        "country": "US"
    },
    {
        "name": "Very Remote AA Group",
        "slug": "veryremote-Tuesday-09:00",
        "day": 2,
        "time": "09:00",
        "timezone": "America/Chicago",
        "location": "Some Church",
        "notes": "",
        "region": "Statestown AA (Demo Site)",
        "url": "https://aamod-demo.area63aa.org/meetings/veryremote",
        "types": [
            "EN",
            "C",
            "B",
            "X"
        ],
        "approximate": false,
        "address": "789 10th St",
        "city": "Sioux Falls",
        "state": "SD",
        "postal_code": "42424",
        "country": "US"
    },
    {
        "name": "Very Remote AA Group",
        "slug": "veryremote-Saturday-13:30",
        "day": 6,
        "time": "13:30",
        "timezone": "America/Chicago",
        "location": "Some Church",
        "notes": "",
        "region": "Statestown AA (Demo Site)",
        "url": "https://aamod-demo.area63aa.org/meetings/veryremote",
        "types": [
            "EN",
            "C",
            "B",
            "X"
        ],
        "approximate": false,
        "address": "789 10th St",
        "city": "Sioux Falls",
        "state": "SD",
        "postal_code": "42424",
        "country": "US"
    },
    {
        "name": "Sunshine Al-Anon",
        "slug": "local-alanon-Sunday-17:05",
        "day": 0,
        "time": "17:05",
        "timezone": "America/Chicago",
        "location": "Local School",
        "notes": "",
        "region": "Statestown AA (Demo Site)",
        "url": "https://aamod-demo.area63aa.org/meetings/local-alanon",
        "types": [
            "EN",
            "AL-AN",
            "D",
            "X"
        ],
        "approximate": false,
        "address": "123 N Main Ave",
        "city": "Sioux Falls",
        "state": "SD",
        "postal_code": "42042",
        "country": "US"
    }
]